GALASSIA-15723-pass 48.txt

Pass details for GALASSIA (orbit 15723)
Observer: nus, Singpaore
LAT:1.30 LON:103.78
AOS: 2018/10/19 04:52:24 UTC
LOS: 2018/10/19 05:04:47 UTC
----------------------------------------------
 Time                  Az      El  Range Footp
----------------------------------------------
 2018/10/19 04:52:24 263.90   0.00  2612  4959
 2018/10/19 04:53:01 265.00   2.28  2371  4959
 2018/10/19 04:53:38 266.35   4.82  2131  4959
 2018/10/19 04:54:15 268.05   7.71  1894  4959
 2018/10/19 04:54:53 270.27  11.08  1660  4959
 2018/10/19 04:55:30 273.29  15.16  1432  4960
 2018/10/19 04:56:07 277.60  20.23  1214  4960
 2018/10/19 04:56:44 284.20  26.72  1012  4960
 2018/10/19 04:57:21 295.17  34.94   839  4961
 2018/10/19 04:57:58 314.63  43.83   715  4962
 2018/10/19 04:58:36 345.49  48.27   671  4962
 2018/10/19 04:59:13  16.03  43.55   719  4963
 2018/10/19 04:59:50  35.08  34.64   845  4964
 2018/10/19 05:00:27  45.84  26.50  1019  4965
 2018/10/19 05:01:04  52.33  20.07  1222  4966
 2018/10/19 05:01:41  56.59  15.05  1440  4967
 2018/10/19 05:02:18  59.58  11.01  1668  4968
 2018/10/19 05:02:56  61.80   7.66  1902  4969
 2018/10/19 05:03:33  63.50   4.79  2139  4971
 2018/10/19 05:04:10  64.86   2.26  2379  4972
 2018/10/19 05:04:47  65.97  -0.00  2620  4973
